node_id,city,country,latitude,longitude,region,timezone
0,Rochester,USA,44.040059,-92.42844,north_america,America/Chicago
1,Baltimore,USA,39.240894,-76.578482,europe,America/New_York
2,Palo Alto,USA,37.478299,-122.157956,asia_pacific,America/Los_Angeles
3,Boston,USA,42.396306,-71.101236,south_america,America/New_York
4,Los Angeles,USA,34.071577,-118.254747,africa,America/Los_Angeles
