node_id,city,country,latitude,longitude,region,timezone
0,Rochester,USA,44.049119,-92.441926,north_america,America/Chicago
1,Baltimore,USA,39.322864,-76.6404,europe,America/New_York
2,Palo Alto,USA,37.407918,-122.141214,asia_pacific,America/Los_Angeles
3,Boston,USA,42.341304,-71.039632,south_america,America/New_York
4,Los Angeles,USA,34.010649,-118.283861,africa,America/Los_Angeles
