node_id,city,country,latitude,longitude,region,timezone
0,Rochester,USA,44.040237,-92.497013,north_america,America/Chicago
1,Baltimore,USA,39.29087,-76.581637,europe,America/New_York
2,Palo Alto,USA,37.411763,-122.152192,asia_pacific,America/Los_Angeles
3,Boston,USA,42.387229,-71.031921,south_america,America/New_York
4,Los Angeles,USA,34.018824,-118.20591,africa,America/Los_Angeles
5,London,UK,51.555807,-0.151355,north_america,Europe/London
6,Paris,France,48.818669,2.387474,europe,Europe/Paris
