node_id,city,country,latitude,longitude,region,timezone
0,Rochester,USA,44.060218,-92.43508,north_america,America/Chicago
1,Baltimore,USA,39.315455,-76.642177,europe,America/New_York
2,Palo Alto,USA,37.490153,-122.117416,asia_pacific,America/Los_Angeles
3,Boston,USA,42.401297,-71.082509,south_america,America/New_York
4,Los Angeles,USA,34.085803,-118.219608,africa,America/Los_Angeles
5,London,UK,51.546854,-0.130661,north_america,Europe/London
6,Paris,France,48.807204,2.368603,europe,Europe/Paris
