node_id,city,country,latitude,longitude,region,timezone
0,Rochester,USA,43.97455,-92.461824,north_america,America/Chicago
1,Baltimore,USA,39.271113,-76.572034,europe,America/New_York
2,Palo Alto,USA,37.485244,-122.159036,asia_pacific,America/Los_Angeles
3,Boston,USA,42.314134,-71.060262,south_america,America/New_York
4,Los Angeles,USA,34.0788,-118.218444,africa,America/Los_Angeles
5,London,UK,51.493322,-0.096769,north_america,Europe/London
6,Paris,France,48.893858,2.395191,europe,Europe/Paris
