node_id,city,country,latitude,longitude,region,timezone
0,Rochester,USA,44.065989,-92.420418,north_america,America/Chicago
1,Baltimore,USA,39.245745,-76.638376,europe,America/New_York
2,Palo Alto,USA,37.442599,-122.146291,asia_pacific,America/Los_Angeles
3,Boston,USA,42.342467,-71.047976,south_america,America/New_York
4,Los Angeles,USA,34.021876,-118.285378,africa,America/Los_Angeles
5,London,UK,51.529077,-0.13667,north_america,Europe/London
6,Paris,France,48.875651,2.335057,europe,Europe/Paris
