node_id,city,country,latitude,longitude,region,timezone
0,Rochester,USA,44.060621,-92.464161,north_america,America/Chicago
1,Baltimore,USA,39.27971,-76.620447,europe,America/New_York
2,Palo Alto,USA,37.395873,-122.10358,asia_pacific,America/Los_Angeles
3,Boston,USA,42.392986,-71.012081,south_america,America/New_York
4,Los Angeles,USA,34.063696,-118.248741,africa,America/Los_Angeles
