node_id,city,country,latitude,longitude,region,timezone
0,Rochester,USA,44.020302,-92.504669,north_america,America/Chicago
1,Baltimore,USA,39.262555,-76.650064,europe,America/New_York
2,Palo Alto,USA,37.427901,-122.142721,asia_pacific,America/Los_Angeles
3,Boston,USA,42.367039,-71.047424,south_america,America/New_York
4,Los Angeles,USA,34.05099,-118.289623,africa,America/Los_Angeles
5,London,UK,51.507608,-0.116825,north_america,Europe/London
6,Paris,France,48.815408,2.312,europe,Europe/Paris
