node_id,city,country,latitude,longitude,region,timezone
0,Rochester,USA,44.024749,-92.513959,north_america,America/Chicago
1,Baltimore,USA,39.296955,-76.570841,europe,America/New_York
2,Palo Alto,USA,37.46413,-122.172623,asia_pacific,America/Los_Angeles
3,Boston,USA,42.352847,-71.080636,south_america,America/New_York
4,Los Angeles,USA,34.047812,-118.217315,africa,America/Los_Angeles
