node_id,city,country,latitude,longitude,region,timezone
0,Rochester,USA,44.00655,-92.512341,north_america,America/Chicago
1,Baltimore,USA,39.319114,-76.633732,europe,America/New_York
2,Palo Alto,USA,37.485471,-122.165563,asia_pacific,America/Los_Angeles
3,Boston,USA,42.31777,-71.03393,south_america,America/New_York
4,Los Angeles,USA,34.038538,-118.281301,africa,America/Los_Angeles
