node_id,city,country,latitude,longitude,region,timezone
0,Rochester,USA,43.983665,-92.514548,north_america,America/Chicago
1,Baltimore,USA,39.324943,-76.610071,europe,America/New_York
2,Palo Alto,USA,37.483782,-122.119747,asia_pacific,America/Los_Angeles
3,Boston,USA,42.380764,-71.034115,south_america,America/New_York
4,Los Angeles,USA,34.006281,-118.239205,africa,America/Los_Angeles
5,London,UK,51.552727,-0.087919,north_america,Europe/London
6,Paris,France,48.845703,2.346965,europe,Europe/Paris
