node_id,city,country,latitude,longitude,region,timezone
0,Rochester,USA,44.034915,-92.451874,north_america,America/Chicago
1,Baltimore,USA,39.304787,-76.634326,europe,America/New_York
2,Palo Alto,USA,37.41281,-122.148101,asia_pacific,America/Los_Angeles
3,Boston,USA,42.337441,-71.104072,south_america,America/New_York
4,Los Angeles,USA,34.071451,-118.217024,africa,America/Los_Angeles
