node_id,city,country,latitude,longitude,region,timezone
0,Rochester,USA,44.051674,-92.489552,north_america,America/Chicago
1,Baltimore,USA,39.288221,-76.575538,europe,America/New_York
2,Palo Alto,USA,37.42915,-122.185172,asia_pacific,America/Los_Angeles
3,Boston,USA,42.406966,-71.098843,south_america,America/New_York
4,Los Angeles,USA,34.06977,-118.245899,africa,America/Los_Angeles
