node_id,city,country,latitude,longitude,region,timezone
0,Rochester,USA,43.995409,-92.438538,north_america,America/Chicago
1,Baltimore,USA,39.29882,-76.584817,europe,America/New_York
2,Palo Alto,USA,37.43101,-122.118595,asia_pacific,America/Los_Angeles
3,Boston,USA,42.381651,-71.03448,south_america,America/New_York
4,Los Angeles,USA,34.092605,-118.248131,africa,America/Los_Angeles
