node_id,city,country,latitude,longitude,region,timezone
0,Rochester,USA,43.977859,-92.436291,north_america,America/Chicago
1,Baltimore,USA,39.257265,-76.657462,europe,America/New_York
2,Palo Alto,USA,37.435787,-122.182801,asia_pacific,America/Los_Angeles
3,Boston,USA,42.408316,-71.029984,south_america,America/New_York
4,Los Angeles,USA,34.064958,-118.289705,africa,America/Los_Angeles
