node_id,city,country,latitude,longitude,region,timezone
0,Rochester,USA,44.018919,-92.515725,north_america,America/Chicago
1,Baltimore,USA,39.291903,-76.584185,europe,America/New_York
2,Palo Alto,USA,37.471815,-122.114552,asia_pacific,America/Los_Angeles
3,Boston,USA,42.311647,-71.035842,south_america,America/New_York
4,Los Angeles,USA,34.064576,-118.199809,africa,America/Los_Angeles
