node_id,city,country,latitude,longitude,region,timezone
0,Rochester,USA,43.99328,-92.502222,north_america,America/Chicago
1,Baltimore,USA,39.338711,-76.590565,europe,America/New_York
2,Palo Alto,USA,37.469338,-122.128959,asia_pacific,America/Los_Angeles
3,Boston,USA,42.376162,-71.03042,south_america,America/New_York
4,Los Angeles,USA,34.016996,-118.260467,africa,America/Los_Angeles
