node_id,city,country,latitude,longitude,region,timezone
0,Rochester,USA,44.029076,-92.438517,north_america,America/Chicago
1,Baltimore,USA,39.274539,-76.644155,europe,America/New_York
2,Palo Alto,USA,37.404382,-122.162449,asia_pacific,America/Los_Angeles
3,Boston,USA,42.324247,-71.090694,south_america,America/New_York
4,Los Angeles,USA,34.059573,-118.230075,africa,America/Los_Angeles
5,London,UK,51.458794,-0.137528,north_america,Europe/London
6,Paris,France,48.83763,2.315179,europe,Europe/Paris
