node_id,city,country,latitude,longitude,region,timezone
0,Rochester,USA,44.007472,-92.434203,north_america,America/Chicago
1,Baltimore,USA,39.334128,-76.639508,europe,America/New_York
2,Palo Alto,USA,37.456626,-122.159746,asia_pacific,America/Los_Angeles
3,Boston,USA,42.398619,-71.061523,south_america,America/New_York
4,Los Angeles,USA,34.100359,-118.272619,africa,America/Los_Angeles
