node_id,city,country,latitude,longitude,region,timezone
0,Rochester,USA,44.065306,-92.495453,north_america,America/Chicago
1,Baltimore,USA,39.287465,-76.640588,europe,America/New_York
2,Palo Alto,USA,37.414107,-122.09671,asia_pacific,America/Los_Angeles
3,Boston,USA,42.403235,-71.024861,south_america,America/New_York
4,Los Angeles,USA,34.085993,-118.255915,africa,America/Los_Angeles
