node_id,city,country,latitude,longitude,region,timezone
0,Rochester,USA,44.041386,-92.498617,north_america,America/Chicago
1,Baltimore,USA,39.323509,-76.632285,europe,America/New_York
2,Palo Alto,USA,37.474476,-122.171114,asia_pacific,America/Los_Angeles
3,Boston,USA,42.349172,-71.052662,south_america,America/New_York
4,Los Angeles,USA,34.029123,-118.213873,africa,America/Los_Angeles
5,London,UK,51.532952,-0.107624,north_america,Europe/London
6,Paris,France,48.894605,2.369377,europe,Europe/Paris
