node_id,city,country,latitude,longitude,region,timezone
0,Rochester,USA,44.055148,-92.433622,north_america,America/Chicago
1,Baltimore,USA,39.259033,-76.630163,europe,America/New_York
2,Palo Alto,USA,37.418543,-122.1812,asia_pacific,America/Los_Angeles
3,Boston,USA,42.319034,-71.103486,south_america,America/New_York
4,Los Angeles,USA,34.02959,-118.225878,africa,America/Los_Angeles
