node_id,city,country,latitude,longitude,region,timezone
0,Rochester,USA,43.985852,-92.421152,north_america,America/Chicago
1,Baltimore,USA,39.246073,-76.572609,europe,America/New_York
2,Palo Alto,USA,37.479987,-122.127467,asia_pacific,America/Los_Angeles
3,Boston,USA,42.363543,-71.060985,south_america,America/New_York
4,Los Angeles,USA,34.091714,-118.24998,africa,America/Los_Angeles
5,London,UK,51.508846,-0.09642,north_america,Europe/London
6,Paris,France,48.833516,2.345009,europe,Europe/Paris
