node_id,city,country,latitude,longitude,region,timezone
0,Rochester,USA,43.979462,-92.449713,north_america,America/Chicago
1,Baltimore,USA,39.302275,-76.5839,europe,America/New_York
2,Palo Alto,USA,37.414408,-122.17125,asia_pacific,America/Los_Angeles
3,Boston,USA,42.321288,-71.038768,south_america,America/New_York
4,Los Angeles,USA,34.021571,-118.19851,africa,America/Los_Angeles
5,London,UK,51.478754,-0.119032,north_america,Europe/London
6,Paris,France,48.900546,2.332028,europe,Europe/Paris
