node_id,city,country,latitude,longitude,region,timezone
0,Rochester,USA,44.000193,-92.517661,north_america,America/Chicago
1,Baltimore,USA,39.241539,-76.605765,europe,America/New_York
2,Palo Alto,USA,37.446743,-122.16621,asia_pacific,America/Los_Angeles
3,Boston,USA,42.354274,-71.017057,south_america,America/New_York
4,Los Angeles,USA,34.02522,-118.237532,africa,America/Los_Angeles
5,London,UK,51.541135,-0.078399,north_america,Europe/London
6,Paris,France,48.891912,2.356661,europe,Europe/Paris
