node_id,city,country,latitude,longitude,region,timezone
0,Rochester,USA,44.028678,-92.472417,north_america,America/Chicago
1,Baltimore,USA,39.261787,-76.605042,europe,America/New_York
2,Palo Alto,USA,37.490418,-122.186282,asia_pacific,America/Los_Angeles
3,Boston,USA,42.350722,-71.082076,south_america,America/New_York
4,Los Angeles,USA,34.085115,-118.220473,africa,America/Los_Angeles
5,London,UK,51.496411,-0.129041,north_america,Europe/London
6,Paris,France,48.871621,2.317721,europe,Europe/Paris
